SITE_ID,version,corr_uncorr_type_corr,flux_calc,openet_model,r2_corr,MAE_corr,MBE_corr,Latitude,Longitude,corr_uncorr_type_uncorr,r2_uncorr,MAE_uncorr,MBE_uncorr,r2_diff,MAE_diff,MBE_diff
Almond_High,v3,corr,Closed,SIMS,0.8998285639448728,16.922906572247285,3.1873910752540167,36.169669,-120.201004,uncorr,0.8965672248438068,18.74356472582939,7.525460996098699,0.003261339101065963,-1.8206581535821051,-4.338069920844683
Almond_Med,v3,corr,Closed,SIMS,0.907619482626554,21.08837318496413,9.252046139061852,36.177669,-120.202644999999,uncorr,0.9038362368453547,22.621198212431754,13.684448485808025,0.0037832457811992626,-1.5328250274676236,-4.432402346746173
LYS_NE,v3,corr,Closed,SIMS,0.8841986166003972,27.47718086241791,-25.328824860733256,35.188127,-102.095543,uncorr,0.8640115426144573,27.125532309101104,-23.8965155359446,0.020187073985939885,0.35164855331680656,-1.4323093247886547
LYS_NW,v3,corr,Closed,SIMS,0.9148827208130742,26.911488357583288,-21.142218078685467,35.1881349999999,-102.097929,uncorr,0.9127297376523968,25.866351787392045,-20.281921105926685,0.0021529831606773575,1.045136570191243,-0.8602969727587819
LYS_SE,v3,corr,Closed,SIMS,0.91547307720214,27.49963658886629,-25.74082332523391,35.186095,-102.095559999999,uncorr,0.8943357171836406,27.08422274569319,-24.265236412049248,0.021137360018499418,0.41541384317310204,-1.4755869131846637
LYS_SW,v3,corr,Closed,SIMS,0.95831126648863,25.26838882536408,-10.91086475094554,35.1861,-102.097938,uncorr,0.9579416386463592,25.399504308615793,-10.01215315575978,0.00036962784227079215,-0.13111548325171185,-0.8987115951857607
