SITE_ID,version,corr_uncorr_type_corr,flux_calc,openet_model,r2_corr,MAE_corr,MBE_corr,Latitude,Longitude,corr_uncorr_type_uncorr,r2_uncorr,MAE_uncorr,MBE_uncorr,r2_diff,MAE_diff,MBE_diff
Almond_High,v3,corr,Closed,EEMETRIC,0.6825430102884616,1.2387369012048104,0.4717307690911899,36.169669,-120.201004,uncorr,0.6937902869098423,1.2589089099933313,0.6264545696029167,-0.011247276621380697,-0.02017200878852088,-0.1547238005117268
Almond_Med,v3,corr,Closed,EEMETRIC,0.7310742775788217,1.4298637316252043,0.8063641519288617,36.177669,-120.202644999999,uncorr,0.7445789960646896,1.4586602397766444,0.9641021712307531,-0.013504718485867873,-0.02879650815144008,-0.15773801930189146
LYS_NE,v3,corr,Closed,EEMETRIC,0.5600866494467435,1.554305512562351,-0.7232282528418352,35.188127,-102.095543,uncorr,0.562715370854989,1.5493796028566706,-0.6696828004880919,-0.002628721408245549,0.004925909705680409,-0.053545452353743306
LYS_NW,v3,corr,Closed,EEMETRIC,0.5605170575894061,1.6213054703205587,-0.8678381409384477,35.1881349999999,-102.097929,uncorr,0.5593288039488453,1.6175702630734887,-0.8125232643666994,0.0011882536405607436,0.0037352072470699937,-0.05531487657174827
LYS_SE,v3,corr,Closed,EEMETRIC,0.6264727155069675,1.5734123013365926,-0.8918449001801815,35.186095,-102.095559999999,uncorr,0.6357176059165508,1.549020466815673,-0.832211738033831,-0.009244890409583317,0.02439183452091953,-0.059633162146350505
LYS_SW,v3,corr,Closed,EEMETRIC,0.6861134855840298,1.4631961718065978,-0.3120888885112544,35.1861,-102.097938,uncorr,0.6940843898088178,1.451428030079051,-0.2572741081497007,-0.007970904224787967,0.01176814172754681,-0.05481478036155368
US-xSL,v3,corr,Closed,EEMETRIC,0.1114445463019851,1.13718905637134,0.1474299723609722,40.4619,-103.0293,uncorr,0.1192865468467077,1.1301129790019808,0.1489136463796131,-0.007842000544722602,0.007076077369359224,-0.0014836740186409125
