SITE_ID,version,corr_uncorr_type_corr,flux_calc,openet_model,r2_corr,MAE_corr,MBE_corr,Latitude,Longitude,corr_uncorr_type_uncorr,r2_uncorr,MAE_uncorr,MBE_uncorr,r2_diff,MAE_diff,MBE_diff
Almond_High,v3,corr,Closed,SSEBOP,0.8945160483608839,21.12865669453254,-16.533801245690444,36.169669,-120.201004,uncorr,0.8942956746325469,20.180060250241983,-11.439543723716367,0.00022037372833705327,0.9485964442905583,-5.094257521974077
Almond_Med,v3,corr,Closed,SSEBOP,0.9363744846904004,17.43144661355021,-12.434454700088065,36.177669,-120.202644999999,uncorr,0.934031798536961,16.50415119214361,-7.07524822321444,0.002342686153439355,0.9272954214066012,-5.3592064768736245
LYS_NE,v3,corr,Closed,SSEBOP,0.5909104514641395,29.78051458906584,-3.6330953752355177,35.188127,-102.095543,uncorr,0.5881320269750109,30.28420063690273,-2.661655624801502,0.0027784244891285725,-0.5036860478368901,-0.9714397504340155
LYS_NW,v3,corr,Closed,SSEBOP,0.6862714918386846,30.04152169345021,-11.108318789757885,35.1881349999999,-102.097929,uncorr,0.6897172327163086,29.873365455358012,-10.27030415075734,-0.0034457408776239484,0.16815623809219815,-0.8380146390005443
LYS_SE,v3,corr,Closed,SSEBOP,0.6311970237588369,28.45538394781331,-5.124426534570148,35.186095,-102.095559999999,uncorr,0.6256703490135391,28.973203266026392,-4.04054402091109,0.005526674745297777,-0.5178193182130819,-1.0838825136590575
LYS_SW,v3,corr,Closed,SSEBOP,0.7685390882403796,33.71581626459906,0.1058456602530583,35.1861,-102.097938,uncorr,0.7698050653097351,33.80637044722242,0.9370514853045488,-0.001265977069355495,-0.09055418262335735,-0.8312058250514905
